[
  {"icao":"LTBJ","lat":38.2924,"lon":27.1500,"name":"Adnan Menderes Airport","tacan":"98X","freq":"128.850","ils":[{"rwy":"17L","freq":"108.50","crs":"170"},{"rwy":"35R","freq":"110.30","crs":"350"}]},
  {"icao":"LGAR","lat":38.6022,"lon":21.3519,"name":"Agrinio Airport","tacan":"1Y","freq":"123.650","ils":[]},
  {"icao":"LGAL","lat":40.8559,"lon":25.9563,"name":"Alexandroupolis Airport","tacan":"85X","freq":"123.800","ils":[]},
  {"icao":"LGAD","lat":37.9208,"lon":21.2925,"name":"Andravida Airbase","tacan":"61X","freq":"131.050","ils":[]},
  {"icao":"LGRX","lat":38.1511,"lon":21.3928,"name":"Araxos Airbase","tacan":"71X","freq":"125.450","ils":[]},
  {"icao":"LTBA","lat":40.9767,"lon":28.8146,"name":"Istanbul Atatürk Airport","tacan":"72X","freq":"126.300","ils":[{"rwy":"06","freq":"110.30","crs":"060"},{"rwy":"18R","freq":"111.10","crs":"180"},{"rwy":"24","freq":"111.90","crs":"240"},{"rwy":"36L","freq":"111.30","crs":"360"}]},
  {"icao":"LTAD","lat":37.8481,"lon":27.8400,"name":"Aydin Airport","tacan":"2Y","freq":"118.200","ils":[]},
  {"icao":"LTBF","lat":39.6194,"lon":27.9261,"name":"Balikesir Airbase","tacan":"43X","freq":"120.225","ils":[]},
  {"icao":"LTBG","lat":40.3178,"lon":27.9775,"name":"Bandirma Airbase","tacan":"47X","freq":"128.875","ils":[{"rwy":"36","freq":"108.30","crs":"360"}]},
  {"icao":"LBBZ","lat":42.4567,"lon":26.3522,"name":"Bezmer Airbase","tacan":"57X","freq":"134.750","ils":[{"rwy":"12","freq":"109.70","crs":"120"},{"rwy":"30","freq":"108.70","crs":"300"}]},
  {"icao":"LTBH","lat":40.1378,"lon":26.4264,"name":"Canakkale Airport","tacan":"7Y","freq":"118.125","ils":[]},
  {"icao":"LTAY","lat":37.7856,"lon":29.7013,"name":"Cardak Airport","tacan":"8Y","freq":"118.650","ils":[]},
  {"icao":"LGKV","lat":40.9733,"lon":24.5372,"name":"Chryssoupolis Airport","tacan":"90X","freq":"118.450","ils":[]},
  {"icao":"LTBL","lat":38.5133,"lon":27.0100,"name":"Cigli Airbase","tacan":"83X","freq":"132.125","ils":[{"rwy":"17","freq":"108.15","crs":"170"}]},
  {"icao":"LTCT","lat":41.1322,"lon":27.9019,"name":"Corlu Airport","tacan":"106Y","freq":"118.750","ils":[{"rwy":"06","freq":"110.50","crs":"060"}]},
  {"icao":"LTBS","lat":36.7131,"lon":28.7925,"name":"Dalaman Airbase","tacan":"100X","freq":"127.400","ils":[{"rwy":"01","freq":"110.10","crs":"010"}]},
  {"icao":"LGRP","lat":36.4053,"lon":28.0862,"name":"Diagoras Airport (Rhodes)","tacan":"26Y","freq":"126.350","ils":[]},
  {"icao":"LGEL","lat":38.0678,"lon":23.5564,"name":"Elefsina Airbase","tacan":"19X","freq":"125.650","ils":[{"rwy":"36","freq":"111.30","crs":"360"}]},
  {"icao":"LGAV","lat":37.9364,"lon":23.9445,"name":"Eleftherios Venizelos Airport","tacan":"122X","freq":"121.750","ils":[{"rwy":"04L","freq":"110.50","crs":"040"},{"rwy":"04R","freq":"111.10","crs":"040"},{"rwy":"22L","freq":"111.10","crs":"220"},{"rwy":"22R","freq":"110.50","crs":"220"}]},
  {"icao":"LTBI","lat":39.7842,"lon":30.5819,"name":"Eskisehir Airbase","tacan":"91X","freq":"126.950","ils":[{"rwy":"27","freq":"108.75","crs":"270"}]},
  {"icao":"LBPD","lat":42.2928,"lon":24.7136,"name":"Graf Ignatievo Airbase","tacan":"110X","freq":"118.300","ils":[]},
  {"icao":"LGIR","lat":35.3397,"lon":25.1803,"name":"Heraklion Airport","tacan":"20X","freq":"128.950","ils":[]},
  {"icao":"LGIO","lat":39.6964,"lon":20.8225,"name":"Ioannina Airport","tacan":"23X","freq":"132.200","ils":[]},
  {"icao":"LTAF","lat":37.8554,"lon":30.5836,"name":"Isparta Airport","tacan":"122Y","freq":"119.650","ils":[]},
  {"icao":"LTBK","lat":38.5100,"lon":26.8500,"name":"Kaklic Airbase","tacan":"115X","freq":"127.650","ils":[]},
  {"icao":"LGKL","lat":37.0683,"lon":22.0253,"name":"Kalamata Airbase","tacan":"99X","freq":"127.850","ils":[{"rwy":"35","freq":"111.30","crs":"350"}]},
  {"icao":"LGKP","lat":35.4214,"lon":27.1461,"name":"Karpathos Airport","tacan":"33X","freq":"125.150","ils":[]},
  {"icao":"LGKC","lat":35.2219,"lon":25.3269,"name":"Kasteli Airbase","tacan":"56X","freq":"133.950","ils":[]},
  {"icao":"LGKO","lat":40.4461,"lon":21.2822,"name":"Kastoria Airport","tacan":"92Y","freq":"118.400","ils":[]},
  {"icao":"LGKF","lat":38.1200,"lon":20.5003,"name":"Kefallonia Airport","tacan":"102X","freq":"123.175","ils":[]},
  {"icao":"LGKW","lat":36.7933,"lon":27.0917,"name":"Kos Airport","tacan":"19Y","freq":"121.050","ils":[]},
  {"icao":"LGKZ","lat":40.2861,"lon":21.8406,"name":"Kozani Airport","tacan":"33Y","freq":"118.350","ils":[]},
  {"icao":"LBPK","lat":42.0675,"lon":24.7753,"name":"Krumovo Airbase","tacan":"75X","freq":"133.350","ils":[{"rwy":"31","freq":"111.75","crs":"310"}]},
  {"icao":"LAKV","lat":40.7783,"lon":19.9058,"name":"Kucove Airbase","tacan":"72Y","freq":"125.900","ils":[]},
  {"icao":"LAKK","lat":41.7775,"lon":20.4156,"name":"Kukes Airport","tacan":"31Y","freq":"121.400","ils":[]},
  {"icao":"LGLA","lat":39.6503,"lon":22.4653,"name":"Larissa Airbase","tacan":"27X","freq":"123.250","ils":[]},
  {"icao":"LGLM","lat":39.9172,"lon":25.2364,"name":"Limnos Airbase","tacan":"95X","freq":"124.350","ils":[]},
  {"icao":"LGTS","lat":40.5197,"lon":22.9709,"name":"Makedonia Airport","tacan":"100X","freq":"123.950","ils":[{"rwy":"11","freq":"109.50","crs":"110"},{"rwy":"17","freq":"110.30","crs":"170"}]},
  {"icao":"LGMG","lat":37.9811,"lon":23.3647,"name":"Megara Airport","tacan":"24Y","freq":"123.575","ils":[]},
  {"icao":"LGMK","lat":37.4353,"lon":25.3481,"name":"Mikonos Airport","tacan":"37Y","freq":"119.875","ils":[]},
  {"icao":"LTFE","lat":37.2506,"lon":27.6644,"name":"Milas Bodrum Airport","tacan":"30X","freq":"128.600","ils":[{"rwy":"29","freq":"110.50","crs":"290"}]},
  {"icao":"LGMT","lat":39.0567,"lon":26.5986,"name":"Mytilene Airport","tacan":"33Y","freq":"123.850","ils":[]},
  {"icao":"LGBL","lat":39.2192,"lon":22.7944,"name":"Nea Anchialos Airbase","tacan":"103X","freq":"130.350","ils":[{"rwy":"26","freq":"110.90","crs":"260"}]},
  {"icao":"LWOH","lat":41.1800,"lon":20.7422,"name":"Ohrid Airport","tacan":"32X","freq":"135.750","ils":[]},
  {"icao":"LTFJ","lat":40.8986,"lon":29.3092,"name":"Sabiha Gokcen Airport","tacan":"92X","freq":"130.300","ils":[]},
  {"icao":"LGSM","lat":37.6897,"lon":26.9117,"name":"Samos Airport","tacan":"30Y","freq":"124.175","ils":[]},
  {"icao":"LGSR","lat":36.3992,"lon":25.4794,"name":"Santorini Airport","tacan":"111X","freq":"131.350","ils":[]},
  {"icao":"LGST","lat":35.2161,"lon":26.1006,"name":"Sitia Airport","tacan":"21Y","freq":"120.600","ils":[]},
  {"icao":"LGSK","lat":39.1772,"lon":23.5039,"name":"Skiathos Airport","tacan":"35Y","freq":"126.050","ils":[]},
  {"icao":"LGSY","lat":38.9678,"lon":24.4872,"name":"Skiros Airbase","tacan":"108X","freq":"132.350","ils":[]},
  {"icao":"LWSK","lat":41.9614,"lon":21.6214,"name":"Skopje Airport","tacan":"104X","freq":"129.050","ils":[{"rwy":"35","freq":"109.70","crs":"350"}]},
  {"icao":"LGSA","lat":35.5317,"lon":24.0700,"name":"Souda Airbase","tacan":"49X","freq":"130.150","ils":[{"rwy":"29","freq":"110.90","crs":"290"}]},
  {"icao":"LGTT","lat":38.3397,"lon":23.5650,"name":"Tanagra Airbase","tacan":"21X","freq":"131.450","ils":[{"rwy":"28","freq":"111.50","crs":"280"}]},
  {"icao":"LGTB","lat":38.1208,"lon":23.7867,"name":"Tatoi Airbase","tacan":"46Y","freq":"118.500","ils":[]},
  {"icao":"LGKX","lat":34.9289,"lon":24.7894,"name":"Timbaki Airport","tacan":"38Y","freq":"128.175","ils":[]},
  {"icao":"LATI","lat":41.4135,"lon":19.7195,"name":"Tirana Airport","tacan":"30Y","freq":"123.475","ils":[]},
  {"icao":"LGTL","lat":37.5306,"lon":22.4042,"name":"Tripolis Airport","tacan":"41Y","freq":"126.750","ils":[]},
  {"icao":"LTBO","lat":38.6814,"lon":29.4717,"name":"Usak Airport","tacan":"43Y","freq":"122.050","ils":[]},
  {"icao":"LTBZ","lat":39.1131,"lon":30.1283,"name":"Zafer Airport","tacan":"21Y","freq":"122.000","ils":[{"rwy":"13","freq":"111.30","crs":"130"},{"rwy":"31","freq":"108.10","crs":"310"}]},
  {"icao":"LGZA","lat":37.7508,"lon":20.8842,"name":"Zakynthos Airport","tacan":"45Y","freq":"131.500","ils":[]}
]
