[
  {"icao":"ENRY","lat":59.3786,"lon":10.7856,"name":"Rygge AB","side":"blue","tacan":"","freq":"126.2","ils":[{"rwy":"01","freq":"108.3","crs":"010"},{"rwy":"19","freq":"109.5","crs":"190"}]},
  {"icao":"ENOL","lat":63.6997,"lon":9.6042,"name":"Ørland AB","side":"blue","tacan":"","freq":"126.2","ils":[{"rwy":"15","freq":"108.7","crs":"151"},{"rwy":"33","freq":"109.3","crs":"331"}]},
  {"icao":"ENBO","lat":67.2692,"lon":14.3653,"name":"Bodø AB","side":"blue","tacan":"","freq":"126.2","ils":[{"rwy":"07","freq":"108.5","crs":"073"},{"rwy":"25","freq":"109.9","crs":"253"}]},
  {"icao":"ENAN","lat":69.2925,"lon":16.1444,"name":"Andøya AB","side":"blue","tacan":"","freq":"126.2","ils":[{"rwy":"17","freq":"108.9","crs":"172"},{"rwy":"35","freq":"110.1","crs":"352"}]},
  {"icao":"ENEV","lat":68.4908,"lon":17.5833,"name":"Evenes AB","side":"blue","tacan":"","freq":"126.2","ils":[{"rwy":"16","freq":"108.3","crs":"162"},{"rwy":"34","freq":"109.7","crs":"342"}]},
  {"icao":"ENTC","lat":69.0558,"lon":18.5397,"name":"Bardufoss AB","side":"blue","tacan":"","freq":"126.2","ils":[{"rwy":"14","freq":"108.7","crs":"141"},{"rwy":"32","freq":"109.1","crs":"321"}]},
  {"icao":"ESPA","lat":65.5436,"lon":22.1219,"name":"Kallax/Luleå AB","side":"blue","tacan":"","freq":"126.2","ils":[{"rwy":"18","freq":"108.5","crs":"181"},{"rwy":"36","freq":"110.3","crs":"001"}]},
  {"icao":"ESCM","lat":59.8972,"lon":17.5886,"name":"Uppsala AB","side":"blue","tacan":"","freq":"126.2","ils":[{"rwy":"01","freq":"108.3","crs":"012"},{"rwy":"19","freq":"109.5","crs":"192"}]},
  {"icao":"ESSL","lat":58.4061,"lon":15.5256,"name":"Linköping/Malmen AB","side":"blue","tacan":"","freq":"126.2","ils":[{"rwy":"01","freq":"108.7","crs":"010"},{"rwy":"19","freq":"109.3","crs":"190"}]},
  {"icao":"ESNY","lat":61.2653,"lon":17.0997,"name":"Söderhamn AB","side":"blue","tacan":"","freq":"126.2","ils":[{"rwy":"18","freq":"108.9","crs":"183"},{"rwy":"36","freq":"110.1","crs":"003"}]},
  {"icao":"ESTA","lat":56.2961,"lon":12.8503,"name":"Ängelholm AB","side":"blue","tacan":"","freq":"126.2","ils":[{"rwy":"03","freq":"109.1","crs":"032"},{"rwy":"21","freq":"108.5","crs":"212"}]},
  {"icao":"ESMT","lat":56.6911,"lon":12.8203,"name":"Halmstad AB","side":"blue","tacan":"","freq":"126.2","ils":[{"rwy":"01","freq":"108.3","crs":"011"},{"rwy":"19","freq":"109.9","crs":"191"}]},
  {"icao":"EKCH","lat":55.6181,"lon":12.6561,"name":"Copenhagen Kastrup","side":"blue","tacan":"","freq":"119.3","ils":[{"rwy":"04L","freq":"110.5","crs":"040"},{"rwy":"22R","freq":"108.7","crs":"220"}]},
  {"icao":"EKKA","lat":56.2975,"lon":9.1236,"name":"Karup AB","side":"blue","tacan":"","freq":"126.2","ils":[{"rwy":"09","freq":"109.3","crs":"091"},{"rwy":"27","freq":"108.9","crs":"271"}]},
  {"icao":"EFTU","lat":60.5147,"lon":22.2628,"name":"Turku","side":"blue","tacan":"","freq":"118.5","ils":[{"rwy":"08","freq":"108.3","crs":"081"},{"rwy":"26","freq":"109.7","crs":"261"}]},
  {"icao":"EFHK","lat":60.3172,"lon":24.9633,"name":"Helsinki Vantaa","side":"blue","tacan":"","freq":"119.1","ils":[{"rwy":"04R","freq":"110.9","crs":"040"},{"rwy":"22L","freq":"108.3","crs":"220"}]},
  {"icao":"EFTP","lat":61.4142,"lon":23.6042,"name":"Tampere-Pirkkala AB","side":"blue","tacan":"","freq":"118.7","ils":[{"rwy":"06","freq":"109.1","crs":"062"},{"rwy":"24","freq":"110.3","crs":"242"}]},
  {"icao":"EFRO","lat":66.5647,"lon":25.8303,"name":"Rovaniemi AB","side":"blue","tacan":"","freq":"126.2","ils":[{"rwy":"03","freq":"108.5","crs":"031"},{"rwy":"21","freq":"109.9","crs":"211"}]},
  {"icao":"EFJY","lat":62.3994,"lon":25.6783,"name":"Jyväskylä AB","side":"blue","tacan":"","freq":"126.2","ils":[{"rwy":"12","freq":"108.7","crs":"121"},{"rwy":"30","freq":"109.3","crs":"301"}]},
  {"icao":"ESGG","lat":57.6628,"lon":12.2797,"name":"Gothenburg Landvetter","side":"blue","tacan":"","freq":"119.0","ils":[{"rwy":"03","freq":"110.1","crs":"030"},{"rwy":"21","freq":"108.9","crs":"210"}]}
]
